[
  {
    "name": "ABASOLO",
    "id": "1",
    "coords": {
      "lat": 27.182589,
      "lng": -101.427647
    }
  },
  {
    "name": "ACUÑA",
    "id": "2",
    "coords": {
      "lat": 29.493245,
      "lng": -101.947878
    }
  },
  {
    "name": "ALLENDE",
    "id": "3",
    "coords": {
      "lat": 28.344596,
      "lng": -100.855077
    }
  },
  {
    "name": "ARTEAGA",
    "id": "4",
    "coords": {
      "lat": 25.446326,
      "lng": -100.842142
    }
  },
  {
    "name": "CANDELA",
    "id": "5",
    "coords": {
      "lat": 26.835543,
      "lng": -100.667566
    }
  },
  {
    "name": "CASTAÑOS",
    "id": "6",
    "coords": {
      "lat": 26.783925,
      "lng": -101.419975
    }
  },
  {
    "name": "CUATROCIÉNEGAS",
    "id": "7",
    "coords": {
      "lat": 26.984931,
      "lng": -102.062334
    }
  },
  {
    "name": "ESCOBEDO",
    "id": "8",
    "coords": {
      "lat": 27.233635,
      "lng": -101.413705
    }
  },
  {
    "name": "FCO. I. MADERO",
    "id": "9",
    "coords": {
      "lat": 25.772167,
      "lng": -103.271071
    }
  },
  {
    "name": "FRONTERA",
    "id": "10",
    "coords": {
      "lat": 26.929928,
      "lng": -101.456109
    }
  },
  {
    "name": "GENERAL CEPEDA",
    "id": "11",
    "coords": {
      "lat": 25.377116,
      "lng": -101.476496
    }
  },
  {
    "name": "GUERRERO",
    "id": "12",
    "coords": {
      "lat": 28.095158,
      "lng": -100.386331
    }
  },
  {
    "name": "HIDALGO",
    "id": "13",
    "coords": {
      "lat": 25.5385299,
      "lng": -103.0706021
    }
  },
  {
    "name": "JIMÉNEZ",
    "id": "14",
    "coords": {
      "lat": 29.064587,
      "lng": -100.681131
    }
  },
  {
    "name": "JUÁREZ",
    "id": "15",
    "coords": {
      "lat": 27.609018,
      "lng": -100.727402
    }
  },
  {
    "name": "LAMADRID",
    "id": "16",
    "coords": {
      "lat": 27.151830,
      "lng": -101.922707
    }
  },
  {
    "name": "MATAMOROS",
    "id": "17",
    "coords": {
      "lat": 25.533090,
      "lng": -103.253858
    }
  },
  {
    "name": "MONCLOVA",
    "id": "18",
    "coords": {
      "lat": 26.906415,
      "lng": -101.423240
    }
  },
  {
    "name": "MORELOS",
    "id": "19",
    "coords": {
      "lat": 28.328326,
      "lng": -101.062698
    }
  },
  {
    "name": "MÚZQUIZ",
    "id": "20",
    "coords": {
      "lat": 28.329268,
      "lng": -101.844071
    }
  },
  {
    "name": "NADADORES",
    "id": "21",
    "coords": {
      "lat": 27.029033,
      "lng": -101.592467
    }
  },
  {
    "name": "NAVA",
    "id": "22",
    "coords": {
      "lat": 28.423921,
      "lng": -100.765021
    }
  },
  {
    "name": "PARRAS",
    "id": "24",
    "coords": {
      "lat": 25.446164,
      "lng": -102.180584
    }
  },
  {
    "name": "PIEDRAS NEGRAS",
    "id": "25",
    "coords": {
      "lat": 28.690906,
      "lng": -100.541387
    }
  },
  {
    "name": "OCAMPO",
    "id": "23",
    "coords": {
      "lat": 27.313732,
      "lng": -102.397049
    }
  },
  {
    "name": "PROGRESO",
    "id": "26",
    "coords": {
      "lat": 27.427612,
      "lng": -100.989363
    }
  },
  {
    "name": "RAMOS ARIZPE",
    "id": "27",
    "coords": {
      "lat": 25.537908,
      "lng": -100.950048
    }
  },
  {
    "name": "SABINAS",
    "id": "28",
    "coords": {
      "lat": 27.914309,
      "lng": -101.121900
    }
  },
  {
    "name": "SACRAMENTO",
    "id": "29",
    "coords": {
      "lat": 27.002728,
      "lng": -101.724152
    }
  },
  {
    "name": "SALTILLO",
    "id": "30",
    "coords": {
      "lat": 25.052900,
      "lng": -101.108114
    }
  },
  {
    "name": "SAN BUENAVENTURA",
    "id": "31",
    "coords": {
      "lat": 27.058307,
      "lng": -101.542644
    }
  },
  {
    "name": "SAN JUAN DE SABINAS",
    "id": "32",
    "coords": {
      "lat": 27.928301,
      "lng": -101.302976
    }
  },
  {
    "name": "SAN PEDRO",
    "id": "33",
    "coords": {
      "lat": 25.756495,
      "lng": -102.985838
    }
  },
  {
    "name": "SIERRA MOJADA",
    "id": "34",
    "coords": {
      "lat": 27.290137,
      "lng": -103.700529
    }
  },
  {
    "name": "TORREÓN",
    "id": "35",
    "coords": {
      "lat": 25.064231,
      "lng": -103.193854
    }
  },
  {
    "name": "VIESCA",
    "id": "36",
    "coords": {
      "lat": 25.208437,
      "lng": -102.917972
    }
  },
  {
    "name": "VILLAUNIÓN",
    "id": "37",
    "coords": {
      "lat": 28.222132,
      "lng": -100.726168
    }
  },
  {
    "name": "ZARAGOZA",
    "id": "38",
    "coords": {
      "lat": 28.493213,
      "lng": -100.921817
    }
  }
]